$GPRMC,000220.00,A,2332.51234,S,04645.50887,W,0.608,,110721,,,A*75
$GPVTG,,T,,M,0.608,N,1.126,K,A*29
$GPGGA,000220.00,2332.51234,S,04645.50887,W,1,04,4.58,744.7,M,-5.3,M,,*45
$GPGSA,A,3,12,02,25,29,,,,,,,,,7.04,4.58,5.35*06
$GPGSV,3,1,11,02,32,143,17,05,36,053,,06,01,141,,11,28,141,15*77
$GPGSV,3,2,11,12,66,116,25,18,22,319,,20,38,091,,24,27,355,*79
$GPGSV,3,3,11,25,56,199,33,29,39,235,26,31,03,218,*47
$GPGLL,2332.51234,S,04645.50887,W,000220.00,A,A*66
$GPGST,000220.00,45,,,,34,13,17*7B
$GPZDA,000220.00,11,07,2021,00,00*60
$GPGBS,000220.00,,,,,,,*6F
$GPRMC,000221.00,A,2332.51289,S,04645.50897,W,0.528,,110721,,,A*72
$GPVTG,,T,,M,0.528,N,0.978,K,A*2A
$GPGGA,000221.00,2332.51289,S,04645.50897,W,1,04,4.58,745.0,M,-5.3,M,,*45
$GPGSA,A,3,12,02,25,29,,,,,,,,,7.04,4.58,5.35*06
$GPGSV,3,1,11,02,32,143,17,05,36,053,,06,01,141,05,11,28,141,15*72
$GPGSV,3,2,11,12,66,116,26,18,22,319,,20,38,091,,24,27,355,*7A
$GPGSV,3,3,11,25,56,199,33,29,39,235,26,31,03,218,*47
$GPGLL,2332.51289,S,04645.50897,W,000221.00,A,A*60
$GPGST,000221.00,44,,,,34,13,17*7B
$GPZDA,000221.00,11,07,2021,00,00*61
$GPGBS,000221.00,,,,,,,*6E
$GPRMC,000222.00,A,2332.51348,S,04645.50902,W,0.439,,110721,,,A*71
$GPVTG,,T,,M,0.439,N,0.812,K,A*26
$GPGGA,000222.00,2332.51348,S,04645.50902,W,1,04,4.58,745.3,M,-5.3,M,,*44
$GPGSA,A,3,12,02,25,29,,,,,,,,,7.04,4.58,5.35*06
$GPGSV,3,1,11,02,32,143,18,05,36,053,,06,01,141,07,11,28,141,16*7C
$GPGSV,3,2,11,12,66,116,26,18,22,319,,20,38,091,,24,27,355,*7A
$GPGSV,3,3,11,25,56,199,33,29,39,235,26,31,03,218,*47
$GPGLL,2332.51348,S,04645.50902,W,000222.00,A,A*62
$GPGST,000222.00,43,,,,34,13,18*70
$GPZDA,000222.00,11,07,2021,00,00*62
$GPGBS,000222.00,,,,,,,*6D
$GPRMC,000223.00,A,2332.51430,S,04645.50875,W,0.025,,110721,,,A*70
$GPVTG,,T,,M,0.025,N,0.046,K,A*26
$GPGGA,000223.00,2332.51430,S,04645.50875,W,1,04,4.58,745.3,M,-5.3,M,,*4C
$GPGSA,A,3,12,02,25,29,,,,,,,,,7.04,4.58,5.35*06
$GPGSV,3,1,11,02,32,143,19,05,36,053,,06,01,141,07,11,28,141,15*7E
$GPGSV,3,2,11,12,66,116,26,18,22,319,,20,38,091,,24,27,355,*7A
$GPGSV,3,3,11,25,56,199,33,29,39,235,26,31,03,218,*47
$GPGLL,2332.51430,S,04645.50875,W,000223.00,A,A*6A
$GPGST,000223.00,42,,,,34,13,18*70
$GPZDA,000223.00,11,07,2021,00,00*63
$GPGBS,000223.00,,,,,,,*6C
$GPRMC,000224.00,A,2332.51468,S,04645.50866,W,0.138,,110721,,,A*75
$GPVTG,,T,,M,0.138,N,0.256,K,A*28
$GPGGA,000224.00,2332.51468,S,04645.50866,W,1,04,4.58,745.4,M,-5.3,M,,*43
$GPGSA,A,3,12,02,25,29,,,,,,,,,7.04,4.58,5.35*06
$GPGSV,3,1,11,02,32,143,19,05,36,053,,06,01,141,07,11,28,141,15*7E
$GPGSV,3,2,11,12,66,116,26,18,22,319,,20,38,091,,24,27,355,*7A
$GPGSV,3,3,11,25,56,199,33,29,39,235,26,31,03,218,*47
$GPGLL,2332.51468,S,04645.50866,W,000224.00,A,A*62
$GPGST,000224.00,42,,,,33,13,18*70
$GPZDA,000224.00,11,07,2021,00,00*64
$GPGBS,000224.00,,,,,,,*6B
$GPRMC,000225.00,A,2332.51531,S,04645.50846,W,0.302,,110721,,,A*70
$GPVTG,,T,,M,0.302,N,0.559,K,A*2B
$GPGGA,000225.00,2332.51531,S,04645.50846,W,1,04,4.58,745.4,M,-5.3,M,,*4D
$GPGSA,A,3,12,02,25,29,,,,,,,,,7.04,4.58,5.35*06
$GPGSV,3,1,11,02,32,143,18,05,36,053,,06,01,141,07,11,28,141,16*7C
$GPGSV,3,2,11,12,66,116,26,18,22,319,,20,38,091,,24,27,355,*7A
$GPGSV,3,3,11,25,56,199,33,29,39,235,26,31,03,218,*47
$GPGLL,2332.51531,S,04645.50846,W,000225.00,A,A*6C
$GPGST,000225.00,42,,,,33,13,18*71
$GPZDA,000225.00,11,07,2021,00,00*65
$GPGBS,000225.00,,,,,,,*6A
$GPRMC,000226.00,A,2332.51572,S,04645.50840,W,0.213,,110721,,,A*73
$GPVTG,,T,,M,0.213,N,0.395,K,A*2C
$GPGGA,000226.00,2332.51572,S,04645.50840,W,1,04,4.58,745.6,M,-5.3,M,,*4D
$GPGSA,A,3,12,02,25,29,,,,,,,,,7.04,4.58,5.35*06
$GPGSV,3,1,11,02,32,143,17,05,36,053,,06,01,141,07,11,28,141,16*73
$GPGSV,3,2,11,12,66,116,26,18,22,319,,20,38,091,,24,27,355,*7A
$GPGSV,3,3,11,25,56,199,33,29,39,235,26,31,03,218,*47
$GPGLL,2332.51572,S,04645.50840,W,000226.00,A,A*6E
$GPGST,000226.00,50,,,,33,13,18*71
$GPZDA,000226.00,11,07,2021,00,00*66
$GPGBS,000226.00,,,,,,,*69
$GPRMC,000227.00,A,2332.51630,S,04645.50839,W,0.211,,110721,,,A*7B
$GPVTG,,T,,M,0.211,N,0.391,K,A*2A
$GPGGA,000227.00,2332.51630,S,04645.50839,W,1,04,4.58,745.9,M,-5.3,M,,*48
$GPGSA,A,3,12,02,25,29,,,,,,,,,7.04,4.58,5.35*06
$GPGSV,3,1,11,02,32,143,17,05,36,053,,06,01,141,07,11,28,141,16*73
$GPGSV,3,2,11,12,66,116,26,18,22,319,,20,38,091,,24,27,355,*7A
$GPGSV,3,3,11,25,56,199,33,29,39,235,27,31,03,218,*46
$GPGLL,2332.51630,S,04645.50839,W,000227.00,A,A*64
$GPGST,000227.00,46,,,,33,13,19*76
$GPZDA,000227.00,11,07,2021,00,00*67
$GPGBS,000227.00,,,,,,,*68
